[
  {
    "city":"New York",
    "lat":40.71,
    "lon":-74.0,
    "region":"North America",
    "iso3":"USA",
    "population":334914895,
    "population_year":"2023",
    "gdp_per_capita":76330,
    "gdp_per_capita_year":"2023",
    "electricity_pct":100.0,
    "electricity_pct_year":"2022",
    "urban_pct":82.5,
    "urban_pct_year":"2022",
    "co2_pc":14.44,
    "co2_pc_year":"2021"
  },
  {
    "city":"Los Angeles",
    "lat":34.05,
    "lon":-118.24,
    "region":"North America",
    "iso3":"USA",
    "population":334914895,
    "population_year":"2023",
    "gdp_per_capita":76330,
    "gdp_per_capita_year":"2023",
    "electricity_pct":100.0,
    "electricity_pct_year":"2022",
    "urban_pct":82.5,
    "urban_pct_year":"2022",
    "co2_pc":14.44,
    "co2_pc_year":"2021"
  },
  {
    "city":"Chicago",
    "lat":41.88,
    "lon":-87.63,
    "region":"North America",
    "iso3":"USA",
    "population":334914895,
    "population_year":"2023",
    "gdp_per_capita":76330,
    "gdp_per_capita_year":"2023",
    "electricity_pct":100.0,
    "electricity_pct_year":"2022",
    "urban_pct":82.5,
    "urban_pct_year":"2022",
    "co2_pc":14.44,
    "co2_pc_year":"2021"
  },
  {
    "city":"London",
    "lat":51.51,
    "lon":-0.13,
    "region":"Europe",
    "iso3":"GBR",
    "population":67026292,
    "population_year":"2023",
    "gdp_per_capita":46510,
    "gdp_per_capita_year":"2023",
    "electricity_pct":100.0,
    "electricity_pct_year":"2022",
    "urban_pct":84.2,
    "urban_pct_year":"2022",
    "co2_pc":5.27,
    "co2_pc_year":"2021"
  },
  {
    "city":"Paris",
    "lat":48.86,
    "lon":2.35,
    "region":"Europe",
    "iso3":"FRA",
    "population":67935660,
    "population_year":"2023",
    "gdp_per_capita":43659,
    "gdp_per_capita_year":"2023",
    "electricity_pct":100.0,
    "electricity_pct_year":"2022",
    "urban_pct":81.5,
    "urban_pct_year":"2022",
    "co2_pc":4.73,
    "co2_pc_year":"2021"
  },
  {
    "city":"Berlin",
    "lat":52.52,
    "lon":13.4,
    "region":"Europe",
    "iso3":"DEU",
    "population":83794000,
    "population_year":"2023",
    "gdp_per_capita":51203,
    "gdp_per_capita_year":"2023",
    "electricity_pct":100.0,
    "electricity_pct_year":"2022",
    "urban_pct":77.5,
    "urban_pct_year":"2022",
    "co2_pc":7.67,
    "co2_pc_year":"2021"
  },
  {
    "city":"Madrid",
    "lat":40.42,
    "lon":-3.7,
    "region":"Europe",
    "iso3":"ESP",
    "population":47420000,
    "population_year":"2023",
    "gdp_per_capita":30103,
    "gdp_per_capita_year":"2023",
    "electricity_pct":100.0,
    "electricity_pct_year":"2022",
    "urban_pct":81.3,
    "urban_pct_year":"2022",
    "co2_pc":5.23,
    "co2_pc_year":"2021"
  },
  {
    "city":"Rome",
    "lat":41.9,
    "lon":12.5,
    "region":"Europe",
    "iso3":"ITA",
    "population":59554000,
    "population_year":"2023",
    "gdp_per_capita":33428,
    "gdp_per_capita_year":"2023",
    "electricity_pct":100.0,
    "electricity_pct_year":"2022",
    "urban_pct":71.4,
    "urban_pct_year":"2022",
    "co2_pc":5.28,
    "co2_pc_year":"2021"
  },
  {
    "city":"Moscow",
    "lat":55.76,
    "lon":37.62,
    "region":"Europe",
    "iso3":"RUS",
    "population":144444000,
    "population_year":"2023",
    "gdp_per_capita":12194,
    "gdp_per_capita_year":"2023",
    "electricity_pct":100.0,
    "electricity_pct_year":"2022",
    "urban_pct":74.8,
    "urban_pct_year":"2022",
    "co2_pc":12.87,
    "co2_pc_year":"2021"
  },
  {
    "city":"Istanbul",
    "lat":41.01,
    "lon":28.96,
    "region":"Europe",
    "iso3":"TUR",
    "population":85279000,
    "population_year":"2023",
    "gdp_per_capita":10674,
    "gdp_per_capita_year":"2023",
    "electricity_pct":100.0,
    "electricity_pct_year":"2022",
    "urban_pct":76.1,
    "urban_pct_year":"2022",
    "co2_pc":5.69,
    "co2_pc_year":"2021"
  },
  {
    "city":"Tokyo",
    "lat":35.68,
    "lon":139.69,
    "region":"Asia",
    "iso3":"JPN",
    "population":125681000,
    "population_year":"2023",
    "gdp_per_capita":33815,
    "gdp_per_capita_year":"2023",
    "electricity_pct":100.0,
    "electricity_pct_year":"2022",
    "urban_pct":91.8,
    "urban_pct_year":"2022",
    "co2_pc":8.33,
    "co2_pc_year":"2021"
  },
  {
    "city":"Shanghai",
    "lat":31.23,
    "lon":121.47,
    "region":"Asia",
    "iso3":"CHN",
    "population":1412600000,
    "population_year":"2023",
    "gdp_per_capita":12556,
    "gdp_per_capita_year":"2023",
    "electricity_pct":100.0,
    "electricity_pct_year":"2022",
    "urban_pct":63.9,
    "urban_pct_year":"2022",
    "co2_pc":8.05,
    "co2_pc_year":"2021"
  },
  {
    "city":"Beijing",
    "lat":39.91,
    "lon":116.39,
    "region":"Asia",
    "iso3":"CHN",
    "population":1412600000,
    "population_year":"2023",
    "gdp_per_capita":12556,
    "gdp_per_capita_year":"2023",
    "electricity_pct":100.0,
    "electricity_pct_year":"2022",
    "urban_pct":63.9,
    "urban_pct_year":"2022",
    "co2_pc":8.05,
    "co2_pc_year":"2021"
  },
  {
    "city":"Mumbai",
    "lat":19.08,
    "lon":72.88,
    "region":"Asia",
    "iso3":"IND",
    "population":1417173000,
    "population_year":"2023",
    "gdp_per_capita":2389,
    "gdp_per_capita_year":"2023",
    "electricity_pct":97.0,
    "electricity_pct_year":"2022",
    "urban_pct":35.9,
    "urban_pct_year":"2022",
    "co2_pc":1.89,
    "co2_pc_year":"2021"
  },
  {
    "city":"Delhi",
    "lat":28.61,
    "lon":77.21,
    "region":"Asia",
    "iso3":"IND",
    "population":1417173000,
    "population_year":"2023",
    "gdp_per_capita":2389,
    "gdp_per_capita_year":"2023",
    "electricity_pct":97.0,
    "electricity_pct_year":"2022",
    "urban_pct":35.9,
    "urban_pct_year":"2022",
    "co2_pc":1.89,
    "co2_pc_year":"2021"
  },
  {
    "city":"Seoul",
    "lat":37.57,
    "lon":126.98,
    "region":"Asia",
    "iso3":"KOR",
    "population":51740000,
    "population_year":"2023",
    "gdp_per_capita":32423,
    "gdp_per_capita_year":"2023",
    "electricity_pct":100.0,
    "electricity_pct_year":"2022",
    "urban_pct":81.4,
    "urban_pct_year":"2022",
    "co2_pc":11.85,
    "co2_pc_year":"2021"
  },
  {
    "city":"Dhaka",
    "lat":23.81,
    "lon":90.41,
    "region":"Asia",
    "iso3":"BGD",
    "population":169356000,
    "population_year":"2023",
    "gdp_per_capita":2688,
    "gdp_per_capita_year":"2023",
    "electricity_pct":97.0,
    "electricity_pct_year":"2022",
    "urban_pct":38.2,
    "urban_pct_year":"2022",
    "co2_pc":0.61,
    "co2_pc_year":"2021"
  },
  {
    "city":"Bangkok",
    "lat":13.75,
    "lon":100.52,
    "region":"Asia",
    "iso3":"THA",
    "population":70078000,
    "population_year":"2023",
    "gdp_per_capita":7066,
    "gdp_per_capita_year":"2023",
    "electricity_pct":100.0,
    "electricity_pct_year":"2022",
    "urban_pct":52.2,
    "urban_pct_year":"2022",
    "co2_pc":3.77,
    "co2_pc_year":"2021"
  },
  {
    "city":"S\u00e3o Paulo",
    "lat":-23.55,
    "lon":-46.63,
    "region":"South America",
    "iso3":"BRA",
    "population":214326000,
    "population_year":"2023",
    "gdp_per_capita":8917,
    "gdp_per_capita_year":"2023",
    "electricity_pct":100.0,
    "electricity_pct_year":"2022",
    "urban_pct":87.8,
    "urban_pct_year":"2022",
    "co2_pc":2.24,
    "co2_pc_year":"2021"
  },
  {
    "city":"Buenos Aires",
    "lat":-34.6,
    "lon":-58.38,
    "region":"South America",
    "iso3":"ARG",
    "population":45510000,
    "population_year":"2023",
    "gdp_per_capita":10713,
    "gdp_per_capita_year":"2023",
    "electricity_pct":100.0,
    "electricity_pct_year":"2022",
    "urban_pct":92.2,
    "urban_pct_year":"2022",
    "co2_pc":4.03,
    "co2_pc_year":"2021"
  },
  {
    "city":"Bogot\u00e1",
    "lat":4.71,
    "lon":-74.07,
    "region":"South America",
    "iso3":"COL",
    "population":51874000,
    "population_year":"2023",
    "gdp_per_capita":6104,
    "gdp_per_capita_year":"2023",
    "electricity_pct":99.6,
    "electricity_pct_year":"2022",
    "urban_pct":81.7,
    "urban_pct_year":"2022",
    "co2_pc":1.68,
    "co2_pc_year":"2021"
  },
  {
    "city":"Cairo",
    "lat":30.04,
    "lon":31.24,
    "region":"Africa",
    "iso3":"EGY",
    "population":102334000,
    "population_year":"2023",
    "gdp_per_capita":3637,
    "gdp_per_capita_year":"2023",
    "electricity_pct":100.0,
    "electricity_pct_year":"2022",
    "urban_pct":42.8,
    "urban_pct_year":"2022",
    "co2_pc":2.07,
    "co2_pc_year":"2021"
  },
  {
    "city":"Lagos",
    "lat":6.52,
    "lon":3.38,
    "region":"Africa",
    "iso3":"NGA",
    "population":213401000,
    "population_year":"2023",
    "gdp_per_capita":2085,
    "gdp_per_capita_year":"2023",
    "electricity_pct":55.4,
    "electricity_pct_year":"2022",
    "urban_pct":52.7,
    "urban_pct_year":"2022",
    "co2_pc":0.64,
    "co2_pc_year":"2021"
  },
  {
    "city":"Nairobi",
    "lat":-1.29,
    "lon":36.82,
    "region":"Africa",
    "iso3":"KEN",
    "population":54986000,
    "population_year":"2023",
    "gdp_per_capita":2080,
    "gdp_per_capita_year":"2023",
    "electricity_pct":75.0,
    "electricity_pct_year":"2022",
    "urban_pct":28.0,
    "urban_pct_year":"2022",
    "co2_pc":0.39,
    "co2_pc_year":"2021"
  },
  {
    "city":"Johannesburg",
    "lat":-26.2,
    "lon":28.04,
    "region":"Africa",
    "iso3":"ZAF",
    "population":59308000,
    "population_year":"2023",
    "gdp_per_capita":6001,
    "gdp_per_capita_year":"2023",
    "electricity_pct":84.0,
    "electricity_pct_year":"2022",
    "urban_pct":68.8,
    "urban_pct_year":"2022",
    "co2_pc":6.95,
    "co2_pc_year":"2021"
  },
  {
    "city":"Sydney",
    "lat":-33.87,
    "lon":151.21,
    "region":"Oceania",
    "iso3":"AUS",
    "population":25499000,
    "population_year":"2023",
    "gdp_per_capita":60443,
    "gdp_per_capita_year":"2023",
    "electricity_pct":100.0,
    "electricity_pct_year":"2022",
    "urban_pct":86.5,
    "urban_pct_year":"2022",
    "co2_pc":14.89,
    "co2_pc_year":"2021"
  },
  {
    "city":"Melbourne",
    "lat":-37.81,
    "lon":144.96,
    "region":"Oceania",
    "iso3":"AUS",
    "population":25499000,
    "population_year":"2023",
    "gdp_per_capita":60443,
    "gdp_per_capita_year":"2023",
    "electricity_pct":100.0,
    "electricity_pct_year":"2022",
    "urban_pct":86.5,
    "urban_pct_year":"2022",
    "co2_pc":14.89,
    "co2_pc_year":"2021"
  },
  {
    "city":"Toronto",
    "lat":43.65,
    "lon":-79.38,
    "region":"North America",
    "iso3":"CAN",
    "population":38246000,
    "population_year":"2023",
    "gdp_per_capita":52051,
    "gdp_per_capita_year":"2023",
    "electricity_pct":100.0,
    "electricity_pct_year":"2022",
    "urban_pct":81.9,
    "urban_pct_year":"2022",
    "co2_pc":14.2,
    "co2_pc_year":"2021"
  },
  {
    "city":"Mexico City",
    "lat":19.43,
    "lon":-99.13,
    "region":"North America",
    "iso3":"MEX",
    "population":126705000,
    "population_year":"2023",
    "gdp_per_capita":10046,
    "gdp_per_capita_year":"2023",
    "electricity_pct":100.0,
    "electricity_pct_year":"2022",
    "urban_pct":80.9,
    "urban_pct_year":"2022",
    "co2_pc":3.63,
    "co2_pc_year":"2021"
  },
  {
    "city":"Karachi",
    "lat":24.86,
    "lon":67.01,
    "region":"Asia",
    "iso3":"PAK",
    "population":225200000,
    "population_year":"2023",
    "gdp_per_capita":1505,
    "gdp_per_capita_year":"2023",
    "electricity_pct":73.0,
    "electricity_pct_year":"2022",
    "urban_pct":37.0,
    "urban_pct_year":"2022",
    "co2_pc":0.93,
    "co2_pc_year":"2021"
  }
]